lga_code20,lga_name20,lga_type20,area_sqkm,latitude,longitude
<<<<<<< HEAD
10050,Albury,C,305.9459,-36.02660390179830,146.97042419919700
10180,Armidale Regional,A,7809.4405,-30.367395266451000,151.8991055293840
10250,Ballina,A,484.9389,-28.852886357804800,153.4861473681240
10300,Balranald,A,21690.6753,-33.950351667700300,143.6116254205860
10470,Bathurst Regional,A,3817.8646,-33.43013885157090,149.52563368463600
10500,Bayside,A,49.8904,-33.94941118951970,151.16669711957200
10550,Bega Valley,A,6278.8811,-36.82594299509780,149.7175695422820
10600,Bellingen,A,1600.4337,-30.40380233877870,152.72859065610000
10650,Berrigan,A,2065.7759,-35.7343271972344,145.71121606033100
10750,Blacktown,C,240.0487,-33.741328406738300,150.86435109627800
10800,Bland,A,8557.6535,-33.89434380412350,146.9612672341320
10850,Blayney,A,1524.647,-33.59433038159380,149.14205880257600
10900,Blue Mountains,C,1431.1442,-33.69754436752230,150.4111412182900
10950,Bogan,A,14599.8996,-31.53812905793070,146.8668727631300
11150,Bourke,A,41599.5072,-29.910562208394100,145.35683370268100
11200,Brewarrina,A,19163.4798,-29.791525276476100,146.96088057898900
11250,Broken Hill,C,170.1153,-31.94403571554340,141.47926792267800
11300,Burwood,A,7.1281,-33.883686222031900,151.1031520062870
11350,Byron,A,565.8029,-28.604166597267900,153.48250524813000
11400,Cabonne,A,6022.3498,-33.152997713900300,148.75410100061300
11450,Camden,A,201.0281,-34.008782272098400,150.72402302858400
11500,Campbelltown (NSW),C,311.9111,-34.08334471928740,150.84577290444800
11520,Canada Bay,A,19.9233,-33.853498316084300,151.11482521865600
11570,Canterbury-Bankstown,A,110.2368,-33.92350771548640,151.03732028115200
11600,Carrathool,A,18934.4852,-33.60899281022300,145.49642506907300
11650,Central Coast (NSW),C,1681.0695,-33.30798975808650,151.2854876216750
11700,Central Darling,A,53492.1931,-31.850698052602000,143.58969165705300
11720,Cessnock,C,1965.1589,-32.92506814231240,151.22489991781700
11730,Clarence Valley,A,10428.6803,-29.681738080587800,152.75115199511000
11750,Cobar,A,45575.3513,-31.8679813506433,145.48285030726400
11800,Coffs Harbour,C,1173.7437,-30.189038635358800,153.0398345660910
12000,Coolamon,A,2430.9037,-34.63253154564000,147.10483289326400
12150,Coonamble,A,9916.0536,-30.870548608517200,148.29160705664800
12160,Cootamundra-Gundagai Regional,A,3981.4173,-34.852975133469000,148.09411957738800
12350,Cowra,A,2808.7822,-33.796383306286,148.71795033244900
12380,Cumberland,A,71.5511,-33.8425578975761,150.98762937665700
12390,Dubbo Regional,A,7534.5251,-32.42471665093830,148.8544108362000
12700,Dungog,A,2249.9983,-32.3495605186885,151.60828730721200
12730,Edward River,A,8883.4464,-35.172544445562800,144.9414719180730
12750,Eurobodalla,A,3428.1695,-35.945156507551800,149.9470493923710
12850,Fairfield,C,101.507,-33.86563441172470,150.89541674236000
12870,Federation,A,5685.0486,-35.497071782702700,146.27136451779200
12900,Forbes,A,4710.128,-33.42163168768720,147.86720197575100
12930,Georges River,A,38.3459,-33.9710383092559,151.08636415847200
12950,Gilgandra,A,4831.5057,-31.619026622969700,148.69073397127200
13010,Glen Innes Severn,A,5479.977,-29.64498640131680,151.90304245025200
13310,Goulburn Mulwaree,A,3220.0796,-34.87603955978930,149.8134914159370
13340,Greater Hume Shire,A,5749.5185,-35.750277914713200,147.17183805766900
13450,Griffith,C,1639.1728,-34.30041046678950,146.00358789465600
13550,Gunnedah,A,4987.0295,-31.046545680720500,150.1888896660610
13660,Gwydir,A,9259.6542,-29.593481050911000,150.51680946424900
13800,Hawkesbury,C,2775.1377,-33.334778843871400,150.77324198425000
13850,Hay,A,11325.9324,-34.31586210509080,144.68369998289200
13910,Hilltops,A,7140.8863,-34.3520099086826,148.50095747126100
14000,Hornsby,A,455.0375,-33.58393044117960,151.08941419988
14100,Hunters Hill,A,5.7169,-33.83335183687130,151.14512897003600
14170,Inner West,A,35.3713,-33.89150438923150,151.15497402912700
14220,Inverell,A,9408.4666,-29.418555092281400,151.07506115497100
14300,Junee,A,2030.0222,-34.81720674497320,147.66887665758800
14350,Kempsey,A,3375.6707,-30.951546596092700,152.64473312041800
14400,Kiama,A,257.6636,-34.67887065130310,150.7562242559360
14500,Ku-ring-gai,A,85.4096,-33.73461020359600,151.15090826620400
14550,Kyogle,A,3584.1644,-28.61779554777170,152.775580557802
14600,Lachlan,A,14968.2538,-32.92010840317200,146.98970789456600
14650,Lake Macquarie,C,648.6398,-33.03885709747220,151.53018206459600
14700,Lane Cove,A,10.4794,-33.81999351128870,151.16689532084400
14750,Leeton,A,1167.1877,-34.532370019133800,146.30208236042400
14850,Lismore,C,1287.7043,-28.75617469925890,153.27065551415500
14870,Lithgow,C,4512.2563,-33.277674746192700,150.17895607766600
14900,Liverpool,C,305.7396,-33.935971053324100,150.8252070419580
14920,Liverpool Plains,A,5082.2397,-31.55061979414610,150.43841618543300
14950,Lockhart,A,2895.8049,-35.331272977164300,146.77543804201700
15050,Maitland,C,391.5087,-32.71081373618440,151.54975567409600
15240,Mid-Coast,A,10053.8633,-32.01531579207940,152.09575779645000
15270,Mid-Western Regional,A,8752.259,-32.59381056692440,149.74242053369900
15300,Moree Plains,A,17906.5241,-29.252876985438300,149.62894571566800
15350,Mosman,A,8.6503,-33.82908170209860,151.24463512429600
15520,Murray River,A,11863.4771,-35.324721411658300,144.2116362240100
15560,Murrumbidgee,A,6880.7902,-34.94973445184300,145.7293646222540
15650,Muswellbrook,A,3404.884,-32.43992440445230,150.63029581242600
15700,Nambucca Valley,A,1491.3432,-30.687556647547200,152.76893790774100
15750,Narrabri,A,13014.9937,-30.35649139043360,149.56488398791700
15800,Narrandera,A,4116.3459,-34.61125956080200,146.57968217717900
15850,Narromine,A,5261.5165,-32.22608911851370,148.0655549903340
15900,Newcastle,C,186.7549,-32.8800575650558,151.69570718015200
15950,North Sydney,A,10.4857,-33.832951901212600,151.2118728045060
15990,Northern Beaches,A,254.2074,-33.69023671976960,151.24967033510700
16100,Oberon,A,3625.047,-33.88329141074250,149.8114007833440
16150,Orange,C,284.2157,-33.32466152369560,149.12037371773400
16200,Parkes,A,5957.6138,-32.881011370944200,147.96142279362000
16260,Parramatta,C,83.8294,-33.79934287139490,151.02930770588900
16350,Penrith,C,404.7016,-33.76537229329790,150.7180705394340
16380,Port Macquarie-Hastings,A,3682.3921,-31.409760473273400,152.53121092999900
16400,Port Stephens,A,858.4357,-32.72179515695380,151.84472212177100
16490,Queanbeyan-Palerang Regional,A,5318.8822,-35.4227563716321,149.62717862270300
16550,Randwick,C,36.3311,-33.943238930021000,151.24020952559900
16610,Richmond Valley,A,3047.3748,-29.059627327503700,153.04628155567700
16700,Ryde,C,40.4748,-33.799138779279900,151.11056233977100
16900,Shellharbour,C,147.4211,-34.58269233910430,150.77386846945200
16950,Shoalhaven,C,4566.6795,-35.094418228931200,150.37328614856700
17000,Singleton,A,4892.717,-32.660378483946900,150.96453304192200
17040,Snowy Monaro Regional,A,15163.5461,-36.396453974398700,148.95891075369100
17080,Snowy Valleys,A,8959.0028,-35.73378455778760,148.24919061126700
17100,Strathfield,A,14.0009,-33.880425741482500,151.07643713487300
17150,Sutherland Shire,A,333.5933,-34.07513753325490,151.05101271449300
17200,Sydney,C,26.7429,-33.88936326971210,151.2027401253630
17310,Tamworth Regional,A,9884.3506,-30.892516964246800,150.90705809202000
17350,Temora,A,2802.016,-34.387939588555300,147.48365633456200
17400,Tenterfield,A,7322.793,-28.943838002570300,152.08643220703500
17420,The Hills Shire,A,386.1588,-33.58826054233070,150.96203408848900
17550,Tweed,A,1307.6562,-28.360000701173300,153.35626833714900
17620,Upper Hunter Shire,A,8096.0892,-31.969255270677700,150.72652134529000
17640,Upper Lachlan Shire,A,7127.3957,-34.41772232836910,149.45566952755300
17650,Uralla,A,3226.5327,-30.507675593893300,151.3123291708670
17750,Wagga Wagga,C,4824.4889,-35.196616682465400,147.36635092022600
17850,Walcha,A,6261.0242,-31.163901991989300,151.78452867614600
17900,Walgett,A,22308.3848,-29.8166591119328,148.19445520686000
17950,Warren,A,10753.7673,-31.325652824256900,147.6798439854900
18020,Warrumbungle Shire,A,12372.1201,-31.462806811003000,149.40539253085900
18050,Waverley,A,9.3507,-33.890050950219,151.26684605392200
18100,Weddin,A,3414.8566,-33.871913320590700,148.01124330639500
18200,Wentworth,A,26256.2398,-33.57021124828820,142.24288013984700
18250,Willoughby,C,22.4258,-33.80109839960380,151.19637054464600
18350,Wingecarribee,A,2689.3413,-34.47693689400320,150.35625908979100
18400,Wollondilly,A,2555.434,-34.10194097316730,150.44379513426200
18450,Wollongong,C,683.986,-34.36879338641600,150.83711616518300
18500,Woollahra,A,12.2775,-33.87167499299240,151.25739234210400
18710,Yass Valley,A,3995.3257,-34.954201599210700,148.88499357660300
19399,Unincorporated NSW,,93214.1592,-30.654720488735400,142.21569110472600
19499,No usual address (NSW),,0.0,0.0,0.0
19799,Migratory - Offshore - Shipping (NSW),,0.0,0.0,0.0
20110,Alpine,S,4788.1568,-36.853568862137000,146.97417160321100
20260,Ararat,RC,4211.1171,-37.472709065334700,142.84319092992000
20570,Ballarat,C,739.0321,-37.49285355712450,143.78147064953200
20660,Banyule,C,62.5402,-37.73044097444070,145.085140869005
20740,Bass Coast,S,865.8095,-38.5072886170397,145.55805565623600
20830,Baw Baw,S,4027.6287,-37.98399912489180,146.13150270499700
20910,Bayside,C,37.2111,-37.94183906281220,145.0181539463280
21010,Benalla,RC,2352.6397,-36.58700296570680,146.02376158463200
21110,Boroondara,C,60.1774,-37.819286269502100,145.06308912642600
21180,Brimbank,C,123.3991,-37.747552941084700,144.80331069710900
21270,Buloke,S,8000.4027,-35.91238555028400,143.00493029471200
21370,Campaspe,S,4518.8582,-36.34519230464260,144.71641400302200
21450,Cardinia,S,1282.5678,-38.083013787398700,145.57268532206900
21610,Casey,C,409.4289,-38.104350165159700,145.30901094947700
21670,Central Goldfields,S,1532.7843,-37.007162459594200,143.71384064939300
21750,Colac-Otway,S,3437.4701,-38.451960911534000,143.59518176785200
21830,Corangamite,S,4407.4921,-38.20432331000910,143.19865119839200
21890,Darebin,C,53.4711,-37.73345861259110,145.01433314367300
22110,East Gippsland,S,20940.2326,-37.37801723413180,148.29166660035300
22170,Frankston,C,129.598,-38.134608195495200,145.1737988114190
22250,Gannawarra,S,3735.3353,-35.751581537267900,143.80423228153200
22310,Glen Eira,C,38.6906,-37.90120582485230,145.0426025497580
22410,Glenelg,S,6218.5734,-37.870498535144600,141.38572818609200
22490,Golden Plains,S,2703.3898,-37.88206521756110,143.84251105540700
22620,Greater Bendigo,C,2999.9721,-36.73444118153380,144.42264588137900
22670,Greater Dandenong,C,129.5469,-38.00558933171230,145.19000911028300
22750,Greater Geelong,C,1247.9876,-38.068958664084500,144.41716237457100
22830,Greater Shepparton,C,2421.9093,-36.396994539613900,145.38619912950500
22910,Hepburn,S,1472.9844,-37.31693705316230,144.05756049847500
22980,Hindmarsh,S,7524.1824,-36.05151799296500,141.75255414770700
23110,Hobsons Bay,C,64.2404,-37.85472062206970,144.8297576705760
23190,Horsham,RC,4266.769,-36.82574523819540,142.09045009992300
23270,Hume,C,503.8505,-37.58918223643520,144.824534272024
23350,Indigo,S,2040.069,-36.22554892034020,146.7230938482370
23430,Kingston (Vic.),C,91.3677,-37.988583532467500,145.1050722793960
23670,Knox,C,113.9115,-37.88898225116200,145.25866967898800
23810,Latrobe (Vic.),C,1425.6128,-38.274564547187700,146.43813509261900
23940,Loddon,S,6696.4447,-36.36390536068400,143.86714228440200
24130,Macedon Ranges,S,1748.2837,-37.3356677243828,144.61661359837300
24210,Manningham,C,113.3478,-37.76159034589,145.1885608168890
24250,Mansfield,S,3843.8535,-37.20042706137650,146.20683573642700
24330,Maribyrnong,C,31.2254,-37.79526741060560,144.87777228501100
24410,Maroondah,C,61.4097,-37.80487231632040,145.26526144554000
24600,Melbourne,C,37.3513,-37.81049808535380,144.94390486665800
24650,Melton,C,527.5374,-37.6930056303138,144.62598181241500
24780,Mildura,RC,22082.4836,-34.86921286072020,141.6828621074270
24850,Mitchell,S,2862.0833,-37.13753045476960,145.00160515947800
24900,Moira,S,4046.3738,-36.061891909709400,145.55035824462100
24970,Monash,C,81.4829,-37.89714147151350,145.1440334646500
25060,Moonee Valley,C,43.1386,-37.74949992453640,144.89576166688500
25150,Moorabool,S,2110.5504,-37.63277513486740,144.21565036838600
25250,Moreland,C,50.9519,-37.729918557360600,144.9488879955210
25340,Mornington Peninsula,S,724.1679,-38.34168733556350,145.03533171576800
25430,Mount Alexander,S,1529.6184,-37.050790244072300,144.19293669552600
25490,Moyne,S,5481.6861,-38.12245428487820,142.4900356676560
25620,Murrindindi,S,3879.7505,-37.31098103865300,145.63010534708600
25710,Nillumbik,S,432.3373,-37.62291462834880,145.23680434536300
25810,Northern Grampians,S,5729.8764,-36.84462899780770,142.91964299220900
25900,Port Phillip,C,20.7092,-37.851815785668600,144.96579723928000
25990,Pyrenees,S,3434.5689,-37.31645793699970,143.37504108255700
26080,Queenscliffe,B,8.6166,-38.264280296349700,144.6477153977380
26170,South Gippsland,S,3296.3307,-38.62137710160930,146.0759918816720
26260,Southern Grampians,S,6654.0186,-37.53653333967190,142.03309397315500
26350,Stonnington,C,25.6514,-37.85795482868840,145.03365690589500
26430,Strathbogie,S,3303.2568,-36.760331445627800,145.43491750740500
26490,Surf Coast,S,1552.944,-38.31230179173810,144.05312205262700
26610,Swan Hill,RC,6115.3087,-35.1202053103785,143.12545540472600
26670,Towong,S,6674.9467,-36.35445046677810,147.59885786276300
26700,Wangaratta,RC,3645.1095,-36.5882689170341,146.42838546207000
26730,Warrnambool,C,120.9488,-38.37144385091280,142.51181387519800
26810,Wellington,S,10817.3346,-37.894350551139900,146.91934771313800
26890,West Wimmera,S,9108.2042,-36.67556542792160,141.2793633329050
26980,Whitehorse,C,64.28,-37.83024850796360,145.15505991505900
27070,Whittlesea,C,489.6939,-37.54721248855000,145.07769265735400
27170,Wodonga,C,432.6894,-36.150556056116,146.88261739687500
27260,Wyndham,C,542.0949,-37.886647000210700,144.61825238323700
27350,Yarra,C,19.5425,-37.802280819584,144.9985485543600
27450,Yarra Ranges,S,2468.205,-37.714276366846300,145.69703661313300
27630,Yarriambiack,S,7325.797,-35.99006415569210,142.41900922792300
29399,Unincorporated Vic,,283.0142,-37.899110116620500,145.89278994506900
29499,No usual address (Vic.),,0.0,0.0,0.0
29799,Migratory - Offshore - Shipping (Vic.),,0.0,0.0,0.0
30250,Aurukun,S,7423.989,-13.609376947645400,141.8284465883570
30300,Balonne,S,31103.7071,-28.31589448535970,148.1161708998240
30370,Banana,S,28550.1626,-24.935166910223600,149.9387035081620
30410,Barcaldine,R,53382.6558,-23.113687029760500,145.69342089709900
30450,Barcoo,S,61830.0907,-25.13106967468430,142.26746186941800
30760,Blackall-Tambo,R,30537.2479,-24.78563034141170,145.79125585292200
30900,Boulia,S,60905.7352,-22.480464525821300,139.2464542850410
31000,Brisbane,C,1342.7188,-27.43784099474080,153.03900329211500
31750,Bulloo,S,73723.751,-28.02130615115490,142.59483606856300
31820,Bundaberg,R,6431.003,-24.967818429869300,152.0357622383180
31900,Burdekin,S,5043.9317,-19.82358276996190,147.2431054111060
31950,Burke,S,39684.0526,-18.031331515209100,138.94768408528200
32080,Cairns,R,1689.3129,-17.160160240236200,145.81900114344200
32250,Carpentaria,S,64121.0124,-17.444397120835300,141.3647459166530
32260,Cassowary Coast,R,4687.824,-17.959551391600400,145.92597236777300
32270,Central Highlands (Qld),R,59834.8359,-24.031456961398900,148.4158120003410
32310,Charters Towers,R,68382.1643,-20.14886266738680,145.7882029276800
32330,Cherbourg,S,31.6002,-26.288808544871700,151.9359930302390
32450,Cloncurry,S,47971.2596,-20.81770446325160,140.2647626006620
32500,Cook,S,105718.7588,-14.235955531015500,143.2596660949550
32600,Croydon,S,29497.9024,-18.554099588311300,142.21680114658800
32750,Diamantina,S,94730.4545,-24.630274670216200,139.73181967425300
32770,Doomadgee,S,1827.6518,-17.596528694030500,138.78095322543300
32810,Douglas,S,2427.8626,-16.222040823320400,145.28669678886800
33100,Etheridge,S,39199.2956,-18.50462097634770,143.6604051227650
33200,Flinders (Qld),S,41199.9374,-20.973880239063500,144.32172739911600
33220,Fraser Coast,R,7104.5987,-25.527901800045600,152.676731462601
33360,Gladstone,R,10484.2862,-24.176323199389400,151.30703082927300
33430,Gold Coast,C,1333.7031,-27.98055784546530,153.31847701873000
33610,Goondiwindi,R,19258.1008,-28.37358977161960,150.3398927334230
33620,Gympie,R,6883.9713,-26.147037722236700,152.4636346162500
33800,Hinchinbrook,S,2807.1889,-18.661894967580100,146.04760884007800
33830,Hope Vale,S,1111.7099,-15.16775039409580,145.19156643323300
33960,Ipswich,C,1093.857,-27.665615475712700,152.66746261965900
33980,Isaac,R,58707.9174,-22.23810156364240,147.89185170585200
34420,Kowanyama,S,2555.3325,-15.319527854035900,141.8105635537680
34530,Livingstone,S,11757.8683,-22.795984255491700,150.19347439091300
34570,Lockhart River,S,3575.4992,-13.005416894377500,143.24026069725100
34580,Lockyer Valley,R,2269.0053,-27.642729863133300,152.24055216408700
34590,Logan,C,958.1322,-27.76239608502540,153.04020702687200
34710,Longreach,R,40572.2443,-23.718133907258200,143.95931905818400
34770,Mackay,R,7613.2964,-21.139091863290300,148.80424295466800
34800,McKinlay,S,40736.7989,-20.533997586414400,141.58696429121600
34830,Mapoon,S,537.1003,-12.141761748207900,141.91980419781100
34860,Maranoa,R,58719.3446,-26.54428381635410,148.2876922302010
34880,Mareeba,S,53491.05,-16.984737153606300,143.95517147651500
35010,Moreton Bay,R,2041.4746,-27.11799305792430,152.88312009868600
35250,Mornington,S,1247.6932,-16.631833261190500,139.40131195646200
35300,Mount Isa,C,43713.0221,-19.953914986241200,138.78226235990700
35600,Murweh,S,40699.7585,-26.18967956810790,146.4894761808390
35670,Napranum,S,2004.3545,-12.515767769487100,142.11243818400300
35740,Noosa,S,869.8657,-26.32485421040590,152.9455759650650
35760,North Burnett,R,19669.8489,-25.355283575385400,151.20416680331200
35780,Northern Peninsula Area,R,1052.0676,-11.004916189638100,142.31289021304900
35790,Palm Island,S,71.9928,-18.731360930438400,146.60025239512100
35800,Paroo,S,47612.8774,-28.07291939558080,145.7712820572100
36070,Pormpuraaw,S,4395.3657,-14.719406678258600,141.80739751839500
36150,Quilpie,S,67414.6563,-26.34882992088810,143.8934384125790
36250,Redland,C,537.167,-27.568598488158600,153.36084294455400
36300,Richmond,S,26580.7478,-20.540655456548500,142.90105689537400
36370,Rockhampton,R,6570.2667,-23.441143587727900,150.21842065858500
36510,Scenic Rim,R,4242.7432,-28.06232539824810,152.79618896888100
36580,Somerset,R,5373.4337,-27.008936601371600,152.42521331755300
36630,South Burnett,R,8381.558,-26.405220843424800,151.64692558163700
36660,Southern Downs,R,7107.816,-28.405525146821000,151.88581245330700
36720,Sunshine Coast,R,2253.8526,-26.69618141499620,152.8983519058460
36820,Tablelands,R,11292.8698,-17.93079274424270,145.33053409658700
36910,Toowoomba,R,12957.2108,-27.581992309552000,151.5338929418080
36950,Torres,S,883.731,-10.73116317204400,142.41227811591000
36960,Torres Strait Island,R,490.031,-9.85911737381313,142.36557135083100
37010,Townsville,C,3730.82,-19.39083310550780,146.71166986917800
37300,Weipa,T,10.8218,-12.640445858114600,141.8789037859050
37310,Western Downs,R,37922.5008,-26.84177589226120,150.34765567057700
37340,Whitsunday,R,23818.8922,-20.7009410422293,147.7246964487840
37400,Winton,S,53813.4826,-22.53914475595510,142.42449783953100
37550,Woorabinda,S,390.5578,-23.943951418819600,149.5255454855490
37570,Wujal Wujal,S,11.842,-15.968303251792700,145.3131922366970
37600,Yarrabah,S,158.8381,-16.99453947266200,145.89715952275100
39499,No usual address (Qld),,0.0,0.0,0.0
39799,Migratory - Offshore - Shipping (Qld),,0.0,0.0,0.0
40070,Adelaide,C,15.5733,-34.92198297494690,138.59891260239400
40120,Adelaide Hills,DC,794.4957,-34.89282375245150,138.83622923056400
40150,Adelaide Plains,DC,932.4913,-34.48062208027870,138.4546770262410
40220,Alexandrina,DC,1826.8066,-35.35191397029900,138.8783520042500
40250,Anangu Pitjantjatjara,AC,102353.0512,-27.07764262256520,131.20558104394600
40310,Barossa,DC,893.5424,-34.621064365289700,139.00168242307700
40430,Barunga West,DC,1590.3887,-33.79896707867680,137.9563366375370
40520,Berri and Barmera,DC,476.1962,-34.265854411239500,140.48890570906800
40700,Burnside,C,27.5183,-34.93997635761430,138.65986719282500
40910,Campbelltown (SA),C,24.3486,-34.88372581468390,138.6822336450620
41010,Ceduna,DC,5420.3436,-32.10211170176200,133.87242030125900
41060,Charles Sturt,C,54.7876,-34.89036509667620,138.52361107488300
41140,Clare and Gilbert Valleys,DC,1892.4466,-34.0039701286937,138.7359694646820
41190,Cleve,DC,5018.8484,-33.6503096823257,136.28475039061600
41330,Coober Pedy,DC,77.6795,-29.0158585533551,134.75235293151000
41560,Copper Coast,DC,772.9149,-33.98339270728770,137.72895836990700
41750,Elliston,DC,6741.9317,-33.56155315347440,135.34460736139500
41830,Flinders Ranges,DC,4070.4827,-32.0756239257693,138.30119070704000
41960,Franklin Harbour,DC,2755.564,-33.53430315949480,136.96440784315500
42030,Gawler,T,41.1379,-34.62212680804850,138.7298820057580
42110,Goyder,DC,6715.1418,-33.64597117936100,139.0740751800270
42250,Grant,DC,1898.0143,-37.846103707613800,140.72476870038100
42600,Holdfast Bay,C,13.752,-35.00114400919840,138.52130996937700
42750,Kangaroo Island,DC,4400.8558,-35.827819525166900,137.23976879206500
43080,Karoonda East Murray,DC,4415.7959,-34.95050498567880,140.02009493110700
43220,Kimba,DC,5697.1076,-33.00269331957720,136.14379931628800
43360,Kingston (SA),DC,3339.7952,-36.64351574751790,140.02550956764800
43650,Light (RegC),,1276.8453,-34.41110559197630,138.84649428366900
43710,Lower Eyre Peninsula,DC,4721.2875,-34.41245492825450,135.59708303014500
43790,Loxton Waikerie,DC,7763.9231,-34.50822871544700,140.35162494817200
44000,Maralinga Tjarutja,AC,102703.899,-29.329217138341200,130.9386590859520
44060,Marion,C,55.6407,-35.03248302932590,138.53969627464400
44210,Mid Murray,DC,6271.6254,-34.45022079819840,139.46138698433300
44340,Mitcham,C,75.5468,-35.003875672501500,138.62175005404500
44550,Mount Barker,DC,594.6405,-35.08580932856640,138.87500436169100
44620,Mount Gambier,C,33.8938,-37.82534521945300,140.7816824300220
44830,Mount Remarkable,DC,3422.7733,-32.75828444109290,138.2051128463330
45040,Murray Bridge,RC,1831.7597,-35.159318582277000,139.3017830022760
45090,Naracoorte and Lucindale,DC,4520.127,-36.9772553163682,140.54735387801000
45120,Northern Areas,DC,2986.1818,-33.28640906560290,138.51141969284000
45290,Norwood Payneham St Peters,C,15.1036,-34.907573861441600,138.63644963800500
45340,Onkaparinga,C,518.1251,-35.1786880483252,138.5688525902780
45400,Orroroo/Carrieton,DC,3321.8238,-32.52076898851100,138.63935379447300
45540,Peterborough,DC,3020.142,-32.86412251632200,139.05964114236300
45680,Playford,C,345.203,-34.688889284266900,138.6629665761110
45890,Port Adelaide Enfield,C,91.7586,-34.84071200581510,138.56150766255000
46090,Port Augusta,C,1195.5836,-32.59564698644410,137.75516645290700
46300,Port Lincoln,C,30.3681,-34.729221209331400,135.8511284444880
46450,Port Pirie City and Dists,M,1760.7097,-33.37684231609980,138.10593234350800
46510,Prospect,C,7.7915,-34.88399707382980,138.59793580401500
46670,Renmark Paringa,DC,915.8655,-34.18235452465860,140.81402109298000
46860,Robe,DC,1091.7162,-37.18768420316140,139.97944243996100
46970,Roxby Downs,M,110.4762,-30.55438582252690,136.88117864537100
47140,Salisbury,C,159.8432,-34.77265897883650,138.61129931239300
47290,Southern Mallee,DC,5702.2095,-35.39392081968970,140.5743520998270
47490,Streaky Bay,DC,6222.8591,-32.70891704144300,134.56402852987000
47630,Tatiara,DC,6527.2084,-36.22791994278240,140.58444062715500
47700,Tea Tree Gully,C,95.2108,-34.80516160168770,138.71804094396100
47800,The Coorong,DC,8833.434,-35.713808218220200,139.76131151972800
47910,Tumby Bay,DC,2669.0747,-34.179334127021900,136.01969717271900
47980,Unley,C,14.2703,-34.95479720059450,138.60403229091800
48050,Victor Harbor,C,384.6255,-35.512789890767300,138.54616146691000
48130,Wakefield,DC,3468.4881,-33.99144534360540,138.35650495287100
48260,Walkerville,M,3.53,-34.892785827232000,138.61710948006800
48340,Wattle Range,DC,3926.3233,-37.47040531924530,140.51887680148000
48410,West Torrens,C,37.04,-34.94140637789560,138.5438613120490
48540,Whyalla,C,1071.3398,-33.03731912616020,137.4943368556630
48640,Wudinna,DC,5075.2783,-33.02866409039930,135.31463839246800
48750,Yankalilla,DC,751.2577,-35.51859226784390,138.33709316901200
48830,Yorke Peninsula,DC,5899.6079,-34.68371183833760,137.55994059792300
49399,Unincorporated SA,,622489.4848,-29.590226995629700,136.74961358499100
49499,No usual address (SA),,0.0,0.0,0.0
49799,Migratory - Offshore - Shipping (SA),,0.0,0.0,0.0
50080,Albany,C,4310.8905,-34.73895437204800,118.18300477322200
50210,Armadale,C,559.5261,-32.16753197265790,116.13697809048500
50250,Ashburton,S,100818.2074,-22.493639107122400,116.72623432440100
50280,Augusta-Margaret River,S,2122.3749,-34.03087722821940,115.22779052381600
50350,Bassendean,T,10.3449,-31.903847532552200,115.94522108690500
50420,Bayswater,C,34.6168,-31.90378891613020,115.90781702491900
50490,Belmont,C,39.8246,-31.95623366332160,115.94831778998500
50560,Beverley,S,2370.5195,-32.17466448844100,116.79657926804600
50630,Boddington,S,1904.4791,-32.81629629956270,116.39989012366700
50770,Boyup Brook,S,2826.4586,-33.891767670686200,116.52403016157700
50840,Bridgetown-Greenbushes,S,1337.361,-34.003780949864300,116.19099007582200
50910,Brookton,S,1601.1532,-32.36199532461830,117.00308915734600
50980,Broome,S,54401.8236,-18.670218525842600,122.46367961909400
51080,Broomehill-Tambellup,S,2609.6585,-34.00250967168440,117.66131855567600
51120,Bruce Rock,S,2724.6944,-31.95258954493120,118.02862997353100
51190,Bunbury,C,65.4163,-33.351646561009300,115.66439402632700
51260,Busselton,C,1454.0505,-33.718444010750000,115.34885982057700
51310,Cambridge,T,21.9554,-31.936278654111500,115.7863993567330
51330,Canning,C,64.8789,-32.03689462333900,115.91635099153700
51400,Capel,S,557.8983,-33.53235059291760,115.63571982297000
51470,Carnamah,S,2870.9247,-29.773222869498900,115.57783240619400
51540,Carnarvon,S,46574.6082,-24.34996370639590,114.39102867760000
51610,Chapman Valley,S,3981.3333,-28.322376860081100,115.05912617532600
51680,Chittering,S,1219.9032,-31.37439471746290,116.0783361669260
51750,Claremont,T,4.9556,-31.980149103369600,115.77997604836000
51820,Cockburn,C,167.8989,-32.11430927848230,115.7929530942100
51890,Collie,S,1709.8149,-33.28355478480090,116.21156609075300
51960,Coolgardie,S,30297.6977,-31.1867854317861,120.96446295904400
52030,Coorow,S,4189.8791,-30.0216161596358,115.75921416774000
52100,Corrigin,S,2681.2709,-32.35836673143000,117.79902921363400
52170,Cottesloe,T,3.8564,-31.994003235697600,115.75849608046200
52240,Cranbrook,S,3276.0491,-34.31481841703800,117.28587301550300
52310,Cuballing,S,1195.337,-32.73540941094080,117.15917413201000
52380,Cue,S,13582.1956,-27.3108206509927,117.94004080789000
52450,Cunderdin,S,1862.4458,-31.59958143396830,117.15571980976600
52520,Dalwallinu,S,7224.3566,-30.12524678706350,116.94475432472000
52590,Dandaragan,S,6711.5721,-30.539613689335500,115.50606999348400
52660,Dardanup,S,525.8017,-33.415424986897300,115.8519147056290
52730,Denmark,S,1859.8488,-34.890484588957500,117.11882820923200
52800,Derby-West Kimberley,S,119730.9697,-17.791056548639800,124.97750799311200
52870,Donnybrook-Balingup,S,1559.8561,-33.66955306679360,115.97353804504400
52940,Dowerin,S,1863.0851,-31.107656348521300,117.11126816744700
53010,Dumbleyung,S,2539.2249,-33.22450145335900,117.96452742906800
53080,Dundas,S,92885.0302,-32.011335571867900,124.41787802157200
53150,East Fremantle,T,3.1384,-32.03794022856350,115.76816742839100
53220,East Pilbara,S,372307.466,-21.768483992962000,123.59665935971000
53290,Esperance,S,44797.5456,-33.22197254808350,122.25028145296200
53360,Exmouth,S,6488.0705,-22.521702133703800,114.16701184810900
53430,Fremantle,C,19.0103,-32.05764722451830,115.76656023643700
53570,Gingin,S,3208.3585,-31.191580001423900,115.69917406535000
53640,Gnowangerup,S,4265.0424,-34.06213520742500,118.28874203941800
53710,Goomalling,S,1835.4294,-31.242840992564200,116.78474777199900
53780,Gosnells,C,127.2975,-32.06623178304270,115.99213677784200
53800,Greater Geraldton,C,9909.0003,-28.561547868219000,115.49714848614200
53920,Halls Creek,S,133061.0128,-19.258216919436900,127.61695305418000
53990,Harvey,S,1727.6068,-33.101104812010100,115.91249555544400
54060,Irwin,S,2369.3298,-29.326041979817200,115.09181130991000
54130,Jerramungup,S,6508.5904,-34.07044001305710,119.10126543133100
54170,Joondalup,C,98.9285,-31.783492680214800,115.76670321690000
54200,Kalamunda,C,324.2957,-32.01224507284930,116.12276345152000
54280,Kalgoorlie/Boulder,C,95498.052,-30.74941314440480,125.05122665890800
54310,Karratha,C,15237.3974,-21.049280368513000,117.03609290169000
54340,Katanning,S,1518.1854,-33.64830044383780,117.68421630667200
54410,Kellerberrin,S,1915.433,-31.582345843006,117.81452583273100
54480,Kent,S,5624.5818,-33.55082935043600,118.57223551747000
54550,Kojonup,S,2930.9926,-33.90763659130990,117.04801183882700
54620,Kondinin,S,7440.8016,-32.42731713748310,119.18479918163500
54690,Koorda,S,2832.3131,-30.590491563646300,117.42546142406400
54760,Kulin,S,4718.9219,-32.71752012319130,118.57610616681100
54830,Kwinana,C,120.0121,-32.22769020222630,115.82866203757600
54900,Lake Grace,S,11886.3199,-33.05989715857640,119.28752843632200
54970,Laverton,S,179984.601,-27.891120940985100,125.40147767499900
55040,Leonora,S,31915.0562,-28.212327923597700,121.14536605100000
55110,Mandurah,C,174.8967,-32.633795948448300,115.68292402385400
55180,Manjimup,S,7029.6077,-34.557140171352200,116.32567814696800
55250,Meekatharra,S,100188.5477,-25.14011036139140,118.8640127357650
55320,Melville,C,52.8506,-32.04744660987130,115.8293881538990
55390,Menzies,S,124110.9368,-29.575105388544900,123.97091544033500
55460,Merredin,S,3293.7824,-31.515327751997800,118.35934880211800
55530,Mingenew,S,1934.8857,-29.15819915171140,115.48424934791700
55600,Moora,S,3763.0254,-30.49805818973340,116.18544377701300
55670,Morawa,S,3510.5928,-29.066919482649000,116.01708728685100
55740,Mosman Park,T,4.3472,-32.01480438737180,115.7655457327160
55810,Mount Magnet,S,13858.1182,-28.238065600561500,117.97640838635600
55880,Mount Marshall,S,10184.5937,-30.183766156121500,117.9621777141270
55950,Mukinbudin,S,3426.9441,-30.629953538064700,118.3111357856260
56090,Mundaring,S,643.2013,-31.89993679972090,116.25163156570400
56160,Murchison,S,45046.0922,-26.75184647115750,116.29975403636900
56230,Murray,S,1703.4688,-32.62366266088640,115.98943158367400
56300,Nannup,S,3053.9361,-34.12843586238060,115.66389613445800
56370,Narembeen,S,3809.0285,-32.04711571945900,118.65384822395900
56460,Narrogin,S,1631.3024,-32.99537812156700,117.26224944029600
56580,Nedlands,C,19.645,-31.972449561413500,115.78957756347900
56620,Ngaanyatjarraku,S,159821.7026,-25.094842574958200,126.83536317033100
56730,Northam,S,1431.2215,-31.685947328797500,116.63599605643700
56790,Northampton,S,12543.7142,-27.75307949166010,114.64591370072800
56860,Nungarin,S,1166.0245,-31.149393844910000,118.20808814043000
56930,Peppermint Grove,S,1.0677,-31.99933320833890,115.7671427279010
57000,Perenjori,S,8301.3551,-29.44394059670540,116.61141617457100
57080,Perth,C,13.7193,-31.96017229714710,115.84654465431700
57140,Pingelly,S,1294.5721,-32.519959088150500,117.22204647588400
57210,Plantagenet,S,4876.6821,-34.59721900198500,117.56196898761200
57280,Port Hedland,T,18417.0777,-20.929123061022900,118.67320352226800
57350,Quairading,S,2016.9269,-32.00481569648040,117.4234397153240
57420,Ravensthorpe,S,9841.7503,-33.61619563447930,120.13859849156600
57490,Rockingham,C,257.497,-32.344182528651100,115.78899680071400
57630,Sandstone,S,32605.2911,-28.33591442980720,119.17311270540700
57700,Serpentine-Jarrahdale,S,901.2056,-32.34425580262080,116.03433102987000
57770,Shark Bay,S,24201.2466,-26.536726989243200,114.52514359770000
57840,South Perth,C,19.8116,-31.997857054603200,115.87001480109900
57910,Stirling,C,104.727,-31.885693240732000,115.81962691428800
57980,Subiaco,C,5.6182,-31.952022923415900,115.81871885020200
58050,Swan,C,1042.9933,-31.741277324822000,116.06741255699000
58190,Tammin,S,1101.692,-31.606676265023600,117.4949908607770
58260,Three Springs,S,2656.6928,-29.525767309820700,115.57731570856900
58330,Toodyay,S,1691.6486,-31.471092705430700,116.38065466901500
58400,Trayning,S,1651.2043,-31.144011763023000,117.80687325372300
58470,Upper Gascoyne,S,57809.8737,-24.726589292371900,116.35511114334600
58510,Victoria Park,T,17.9397,-31.979713693616800,115.90147001019100
58540,Victoria Plains,S,2551.0132,-31.014335025895900,116.3195939368770
58570,Vincent,C,11.3769,-31.931290403268000,115.85254458635900
58610,Wagin,S,1946.1763,-33.27669357350630,117.36992906519500
58680,Wandering,S,1903.8645,-32.54718278072340,116.58125508411900
58760,Wanneroo,C,683.2603,-31.611764851384700,115.76294915566600
58820,Waroona,S,832.2286,-32.85795233388290,115.92009528916800
58890,West Arthur,S,2831.8272,-33.45713016918400,116.73936719026700
59030,Westonia,S,3319.4497,-30.967576867202800,118.65624701930800
59100,Wickepin,S,2040.8985,-32.80696475853370,117.6717616916650
59170,Williams,S,2304.7119,-33.07142707325560,116.72808922370000
59250,Wiluna,S,181297.3382,-25.312028196493700,122.24507953247700
59310,Wongan-Ballidu,S,3365.0675,-30.717130777326500,116.8426142151580
59320,Woodanilling,S,1128.8348,-33.53366586238150,117.33806234170800
59330,Wyalkatchem,S,1594.4885,-31.186689070930100,117.43527703607700
59340,Wyndham-East Kimberley,S,112065.9843,-15.558978185770100,127.0516770239310
59350,Yalgoo,S,27949.4641,-28.56517308183830,117.05027308579100
59360,Yilgarn,S,30428.765,-30.95734797286980,119.3419850484840
59370,York,S,2131.5916,-31.926379706844100,116.73542792608000
59499,No usual address (WA),,0.0,0.0,0.0
59799,Migratory - Offshore - Shipping (WA),,0.0,0.0,0.0
60210,Break O'Day,M,3523.8859,-41.425307956641700,148.04989460573700
60410,Brighton,M,171.1508,-42.71934076737970,147.26095352701800
60610,Burnie,C,610.9529,-41.21605783388630,145.80619367278800
60810,Central Coast (Tas.),M,933.0892,-41.281247680707200,146.04002334985500
61010,Central Highlands (Tas.),M,7982.4155,-42.21234561897520,146.64605834461100
61210,Circular Head,M,4898.011,-41.078948789854,145.01465426215700
61410,Clarence,C,377.9552,-42.83702627988520,147.4341340659490
61510,Derwent Valley,M,4108.1112,-42.81296969478800,146.4213567441270
61610,Devonport,C,111.259,-41.20869692741230,146.31189943353200
61810,Dorset,M,3230.5456,-41.07212137452540,147.70851454491700
62010,Flinders (Tas.),M,1996.6244,-40.11936708395430,148.09784891889100
62210,George Town,M,653.4377,-41.10217987478960,147.02601659185000
62410,Glamorgan/Spring Bay,M,2591.5618,-42.26918005991300,147.96534731087400
62610,Glenorchy,C,121.1483,-42.839333146404000,147.21976047143800
62810,Hobart,C,77.9097,-42.89783875253940,147.28760659566700
63010,Huon Valley,M,5507.3541,-43.25142970806780,146.59715481583200
63210,Kentish,M,1156.1887,-41.45396930951780,146.18351449297200
63410,King Island,M,1095.7407,-39.86381397890430,143.98548010171400
63610,Kingborough,M,720.1029,-43.189198841646600,147.262334732365
63810,Latrobe (Tas.),M,600.4617,-41.24398315639930,146.56002152213100
64010,Launceston,C,1413.6306,-41.36063424246230,147.30581472601500
64210,Meander Valley,M,3330.8145,-41.626654377939300,146.48478161484500
64610,Northern Midlands,M,5135.2503,-41.84018692575070,147.460168215539
64810,Sorell,M,583.7776,-42.778680233661700,147.6961444017770
65010,Southern Midlands,M,2615.4934,-42.43456222735910,147.4005507603620
65210,Tasman,M,660.3947,-43.05468704282390,147.83465249530800
65410,Waratah/Wynyard,M,3535.9075,-41.383241552530600,145.4953807364190
65610,West Coast,M,9583.5388,-42.29818813758740,145.63731900941000
65810,West Tamar,M,691.147,-41.2816419665381,146.86439621438900
69499,No usual address (Tas.),,0.0,0.0,0.0
69799,Migratory - Offshore - Shipping (Tas.),,0.0,0.0,0.0
70200,Alice Springs,T,327.7133,-23.7350731335645,133.8547686240820
70420,Barkly,R,322713.2188,-19.444096042441800,135.08474620788400
70540,Belyuen,S,41.4054,-12.538184633062100,130.6831805277890
70620,Central Desert,R,281312.0262,-21.489836592226900,132.41529991448500
70700,Coomalie,S,2056.0547,-13.125752177508000,131.08285406776700
71000,Darwin,C,111.318,-12.39845244411900,130.88698625720500
71300,East Arnhem,R,33309.9334,-12.933243729261900,135.74553078358100
72200,Katherine,T,7416.6444,-14.690172694367900,132.19508198088100
72300,Litchfield,M,2903.1459,-12.53745077295030,131.12180057463800
72330,MacDonnell,R,268329.3474,-24.637301633917300,133.1615086142480
72800,Palmerston,C,52.6559,-12.502519410555500,130.9791767861920
73600,Roper Gulf,R,185210.2475,-15.434839703386000,134.65113097691100
74050,Tiwi Islands,R,7483.1661,-11.559845460038000,130.81629613909900
74550,Victoria Daly,R,153287.0839,-16.24958627442410,130.6586269153000
74560,Wagait,S,5.6378,-12.441235456365800,130.74970469644500
74660,West Arnhem,R,49675.0343,-12.508058173681200,133.25851353136100
74680,West Daly,R,14069.6979,-14.223007317836200,130.06033936644400
79399,Unincorporated NT,,19789.9972,-13.112455012996600,131.18721783031300
79499,No usual address (NT),,0.0,0.0,0.0
79799,Migratory - Offshore - Shipping (NT),,0.0,0.0,0.0
89399,Unincorporated ACT,,2358.172,-35.48876608135750,149.00252306971300
89499,No usual address (ACT),,0.0,0.0,0.0
89799,Migratory - Offshore - Shipping (ACT),,0.0,0.0,0.0
99399,Unincorp. Other Territories,,256.3162,-20.79726518170480,128.3685429062330
99499,No usual address (OT),,0.0,0.0,0.0
99799,Migratory - Offshore - Shipping (OT),,0.0,0.0,0.0
=======
10050,Albury,C,305.9459,-36.0266039,146.9704242
10180,Armidale Regional,A,7809.4405,-30.36739527,151.8991055
10250,Ballina,A,484.9389,-28.85288636,153.4861474
10300,Balranald,A,21690.6753,-33.95035167,143.6116254
10470,Bathurst Regional,A,3817.8646,-33.43013885,149.5256337
10500,Bayside,A,49.8904,-33.94941119,151.1666971
10550,Bega Valley,A,6278.8811,-36.825943,149.7175695
10600,Bellingen,A,1600.4337,-30.40380234,152.7285907
10650,Berrigan,A,2065.7759,-35.7343272,145.7112161
10750,Blacktown,C,240.0487,-33.74132841,150.8643511
10800,Bland,A,8557.6535,-33.8943438,146.9612672
10850,Blayney,A,1524.647,-33.59433038,149.1420588
10900,Blue Mountains,C,1431.1442,-33.69754437,150.4111412
10950,Bogan,A,14599.8996,-31.53812906,146.8668728
11150,Bourke,A,41599.5072,-29.91056221,145.3568337
11200,Brewarrina,A,19163.4798,-29.79152528,146.9608806
11250,Broken Hill,C,170.1153,-31.94403572,141.4792679
11300,Burwood,A,7.1281,-33.88368622,151.103152
11350,Byron,A,565.8029,-28.6041666,153.4825052
11400,Cabonne,A,6022.3498,-33.15299771,148.754101
11450,Camden,A,201.0281,-34.00878227,150.724023
11500,Campbelltown (NSW),C,311.9111,-34.08334472,150.8457729
11520,Canada Bay,A,19.9233,-33.85349832,151.1148252
11570,Canterbury-Bankstown,A,110.2368,-33.92350772,151.0373203
11600,Carrathool,A,18934.4852,-33.60899281,145.4964251
11650,Central Coast (NSW),C,1681.0695,-33.30798976,151.2854876
11700,Central Darling,A,53492.1931,-31.85069805,143.5896917
11720,Cessnock,C,1965.1589,-32.92506814,151.2248999
11730,Clarence Valley,A,10428.6803,-29.68173808,152.751152
11750,Cobar,A,45575.3513,-31.86798135,145.4828503
11800,Coffs Harbour,C,1173.7437,-30.18903864,153.0398346
12000,Coolamon,A,2430.9037,-34.63253155,147.1048329
12150,Coonamble,A,9916.0536,-30.87054861,148.2916071
12160,Cootamundra-Gundagai Regional,A,3981.4173,-34.85297513,148.0941196
12350,Cowra,A,2808.7822,-33.79638331,148.7179503
12380,Cumberland,A,71.5511,-33.8425579,150.9876294
12390,Dubbo Regional,A,7534.5251,-32.42471665,148.8544108
12700,Dungog,A,2249.9983,-32.34956052,151.6082873
12730,Edward River,A,8883.4464,-35.17254445,144.9414719
12750,Eurobodalla,A,3428.1695,-35.94515651,149.9470494
12850,Fairfield,C,101.507,-33.86563441,150.8954167
12870,Federation,A,5685.0486,-35.49707178,146.2713645
12900,Forbes,A,4710.128,-33.42163169,147.867202
12930,Georges River,A,38.3459,-33.97103831,151.0863642
12950,Gilgandra,A,4831.5057,-31.61902662,148.690734
13010,Glen Innes Severn,A,5479.977,-29.6449864,151.9030425
13310,Goulburn Mulwaree,A,3220.0796,-34.87603956,149.8134914
13340,Greater Hume Shire,A,5749.5185,-35.75027791,147.1718381
13450,Griffith,C,1639.1728,-34.30041047,146.0035879
13550,Gunnedah,A,4987.0295,-31.04654568,150.1888897
13660,Gwydir,A,9259.6542,-29.59348105,150.5168095
13800,Hawkesbury,C,2775.1377,-33.33477884,150.773242
13850,Hay,A,11325.9324,-34.31586211,144.6837
13910,Hilltops,A,7140.8863,-34.35200991,148.5009575
14000,Hornsby,A,455.0375,-33.58393044,151.0894142
14100,Hunters Hill,A,5.7169,-33.83335184,151.145129
14170,Inner West,A,35.3713,-33.89150439,151.154974
14220,Inverell,A,9408.4666,-29.41855509,151.0750612
14300,Junee,A,2030.0222,-34.81720674,147.6688767
14350,Kempsey,A,3375.6707,-30.9515466,152.6447331
14400,Kiama,A,257.6636,-34.67887065,150.7562243
14500,Ku-ring-gai,A,85.4096,-33.7346102,151.1509083
14550,Kyogle,A,3584.1644,-28.61779555,152.7755806
14600,Lachlan,A,14968.2538,-32.9201084,146.9897079
14650,Lake Macquarie,C,648.6398,-33.0388571,151.5301821
14700,Lane Cove,A,10.4794,-33.81999351,151.1668953
14750,Leeton,A,1167.1877,-34.53237002,146.3020824
14850,Lismore,C,1287.7043,-28.7561747,153.2706555
14870,Lithgow,C,4512.2563,-33.27767475,150.1789561
14900,Liverpool,C,305.7396,-33.93597105,150.825207
14920,Liverpool Plains,A,5082.2397,-31.55061979,150.4384162
14950,Lockhart,A,2895.8049,-35.33127298,146.775438
15050,Maitland,C,391.5087,-32.71081374,151.5497557
15240,Mid-Coast,A,10053.8633,-32.01531579,152.0957578
15270,Mid-Western Regional,A,8752.259,-32.59381057,149.7424205
15300,Moree Plains,A,17906.5241,-29.25287699,149.6289457
15350,Mosman,A,8.6503,-33.8290817,151.2446351
15520,Murray River,A,11863.4771,-35.32472141,144.2116362
15560,Murrumbidgee,A,6880.7902,-34.94973445,145.7293646
15650,Muswellbrook,A,3404.884,-32.4399244,150.6302958
15700,Nambucca Valley,A,1491.3432,-30.68755665,152.7689379
15750,Narrabri,A,13014.9937,-30.35649139,149.564884
15800,Narrandera,A,4116.3459,-34.61125956,146.5796822
15850,Narromine,A,5261.5165,-32.22608912,148.065555
15900,Newcastle,C,186.7549,-32.88005757,151.6957072
15950,North Sydney,A,10.4857,-33.8329519,151.2118728
15990,Northern Beaches,A,254.2074,-33.69023672,151.2496703
16100,Oberon,A,3625.047,-33.88329141,149.8114008
16150,Orange,C,284.2157,-33.32466152,149.1203737
16200,Parkes,A,5957.6138,-32.88101137,147.9614228
16260,Parramatta,C,83.8294,-33.79934287,151.0293077
16350,Penrith,C,404.7016,-33.76537229,150.7180705
16380,Port Macquarie-Hastings,A,3682.3921,-31.40976047,152.5312109
16400,Port Stephens,A,858.4357,-32.72179516,151.8447221
16490,Queanbeyan-Palerang Regional,A,5318.8822,-35.42275637,149.6271786
16550,Randwick,C,36.3311,-33.94323893,151.2402095
16610,Richmond Valley,A,3047.3748,-29.05962733,153.0462816
16700,Ryde,C,40.4748,-33.79913878,151.1105623
16900,Shellharbour,C,147.4211,-34.58269234,150.7738685
16950,Shoalhaven,C,4566.6795,-35.09441823,150.3732861
17000,Singleton,A,4892.717,-32.66037848,150.964533
17040,Snowy Monaro Regional,A,15163.5461,-36.39645397,148.9589108
17080,Snowy Valleys,A,8959.0028,-35.73378456,148.2491906
17100,Strathfield,A,14.0009,-33.88042574,151.0764371
17150,Sutherland Shire,A,333.5933,-34.07513753,151.0510127
17200,Sydney,C,26.7429,-33.88936327,151.2027401
17310,Tamworth Regional,A,9884.3506,-30.89251696,150.9070581
17350,Temora,A,2802.016,-34.38793959,147.4836563
17400,Tenterfield,A,7322.793,-28.943838,152.0864322
17420,The Hills Shire,A,386.1588,-33.58826054,150.9620341
17550,Tweed,A,1307.6562,-28.3600007,153.3562683
17620,Upper Hunter Shire,A,8096.0892,-31.96925527,150.7265213
17640,Upper Lachlan Shire,A,7127.3957,-34.41772233,149.4556695
17650,Uralla,A,3226.5327,-30.50767559,151.3123292
17750,Wagga Wagga,C,4824.4889,-35.19661668,147.3663509
17850,Walcha,A,6261.0242,-31.16390199,151.7845287
17900,Walgett,A,22308.3848,-29.81665911,148.1944552
17950,Warren,A,10753.7673,-31.32565282,147.679844
18020,Warrumbungle Shire,A,12372.1201,-31.46280681,149.4053925
18050,Waverley,A,9.3507,-33.89005095,151.2668461
18100,Weddin,A,3414.8566,-33.87191332,148.0112433
18200,Wentworth,A,26256.2398,-33.57021125,142.2428801
18250,Willoughby,C,22.4258,-33.8010984,151.1963705
18350,Wingecarribee,A,2689.3413,-34.47693689,150.3562591
18400,Wollondilly,A,2555.434,-34.10194097,150.4437951
18450,Wollongong,C,683.986,-34.36879339,150.8371162
18500,Woollahra,A,12.2775,-33.87167499,151.2573923
18710,Yass Valley,A,3995.3257,-34.9542016,148.8849936
19399,Unincorporated NSW,,93214.1592,-30.65472049,142.2156911
19499,No usual address (NSW),,0,0,0
19799,Migratory - Offshore - Shipping (NSW),,0,0,0
20110,Alpine,S,4788.1568,-36.85356886,146.9741716
20260,Ararat,RC,4211.1171,-37.47270907,142.8431909
20570,Ballarat,C,739.0321,-37.49285356,143.7814706
20660,Banyule,C,62.5402,-37.73044097,145.0851409
20740,Bass Coast,S,865.8095,-38.50728862,145.5580557
20830,Baw Baw,S,4027.6287,-37.98399912,146.1315027
20910,Bayside,C,37.2111,-37.94183906,145.0181539
21010,Benalla,RC,2352.6397,-36.58700297,146.0237616
21110,Boroondara,C,60.1774,-37.81928627,145.0630891
21180,Brimbank,C,123.3991,-37.74755294,144.8033107
21270,Buloke,S,8000.4027,-35.91238555,143.0049303
21370,Campaspe,S,4518.8582,-36.3451923,144.716414
21450,Cardinia,S,1282.5678,-38.08301379,145.5726853
21610,Casey,C,409.4289,-38.10435017,145.3090109
21670,Central Goldfields,S,1532.7843,-37.00716246,143.7138406
21750,Colac-Otway,S,3437.4701,-38.45196091,143.5951818
21830,Corangamite,S,4407.4921,-38.20432331,143.1986512
21890,Darebin,C,53.4711,-37.73345861,145.0143331
22110,East Gippsland,S,20940.2326,-37.37801723,148.2916666
22170,Frankston,C,129.598,-38.1346082,145.1737988
22250,Gannawarra,S,3735.3353,-35.75158154,143.8042323
22310,Glen Eira,C,38.6906,-37.90120582,145.0426025
22410,Glenelg,S,6218.5734,-37.87049854,141.3857282
22490,Golden Plains,S,2703.3898,-37.88206522,143.8425111
22620,Greater Bendigo,C,2999.9721,-36.73444118,144.4226459
22670,Greater Dandenong,C,129.5469,-38.00558933,145.1900091
22750,Greater Geelong,C,1247.9876,-38.06895866,144.4171624
22830,Greater Shepparton,C,2421.9093,-36.39699454,145.3861991
22910,Hepburn,S,1472.9844,-37.31693705,144.0575605
22980,Hindmarsh,S,7524.1824,-36.05151799,141.7525541
23110,Hobsons Bay,C,64.2404,-37.85472062,144.8297577
23190,Horsham,RC,4266.769,-36.82574524,142.0904501
23270,Hume,C,503.8505,-37.58918224,144.8245343
23350,Indigo,S,2040.069,-36.22554892,146.7230938
23430,Kingston (Vic.),C,91.3677,-37.98858353,145.1050723
23670,Knox,C,113.9115,-37.88898225,145.2586697
23810,Latrobe (Vic.),C,1425.6128,-38.27456455,146.4381351
23940,Loddon,S,6696.4447,-36.36390536,143.8671423
24130,Macedon Ranges,S,1748.2837,-37.33566772,144.6166136
24210,Manningham,C,113.3478,-37.76159035,145.1885608
24250,Mansfield,S,3843.8535,-37.20042706,146.2068357
24330,Maribyrnong,C,31.2254,-37.79526741,144.8777723
24410,Maroondah,C,61.4097,-37.80487232,145.2652614
24600,Melbourne,C,37.3513,-37.81049809,144.9439049
24650,Melton,C,527.5374,-37.69300563,144.6259818
24780,Mildura,RC,22082.4836,-34.86921286,141.6828621
24850,Mitchell,S,2862.0833,-37.13753045,145.0016052
24900,Moira,S,4046.3738,-36.06189191,145.5503582
24970,Monash,C,81.4829,-37.89714147,145.1440335
25060,Moonee Valley,C,43.1386,-37.74949992,144.8957617
25150,Moorabool,S,2110.5504,-37.63277513,144.2156504
25250,Moreland,C,50.9519,-37.72991856,144.948888
25340,Mornington Peninsula,S,724.1679,-38.34168734,145.0353317
25430,Mount Alexander,S,1529.6184,-37.05079024,144.1929367
25490,Moyne,S,5481.6861,-38.12245428,142.4900357
25620,Murrindindi,S,3879.7505,-37.31098104,145.6301053
25710,Nillumbik,S,432.3373,-37.62291463,145.2368043
25810,Northern Grampians,S,5729.8764,-36.844629,142.919643
25900,Port Phillip,C,20.7092,-37.85181579,144.9657972
25990,Pyrenees,S,3434.5689,-37.31645794,143.3750411
26080,Queenscliffe,B,8.6166,-38.2642803,144.6477154
26170,South Gippsland,S,3296.3307,-38.6213771,146.0759919
26260,Southern Grampians,S,6654.0186,-37.53653334,142.033094
26350,Stonnington,C,25.6514,-37.85795483,145.0336569
26430,Strathbogie,S,3303.2568,-36.76033145,145.4349175
26490,Surf Coast,S,1552.944,-38.31230179,144.0531221
26610,Swan Hill,RC,6115.3087,-35.12020531,143.1254554
26670,Towong,S,6674.9467,-36.35445047,147.5988579
26700,Wangaratta,RC,3645.1095,-36.58826892,146.4283855
26730,Warrnambool,C,120.9488,-38.37144385,142.5118139
26810,Wellington,S,10817.3346,-37.89435055,146.9193477
26890,West Wimmera,S,9108.2042,-36.67556543,141.2793633
26980,Whitehorse,C,64.28,-37.83024851,145.1550599
27070,Whittlesea,C,489.6939,-37.54721249,145.0776927
27170,Wodonga,C,432.6894,-36.15055606,146.8826174
27260,Wyndham,C,542.0949,-37.886647,144.6182524
27350,Yarra,C,19.5425,-37.80228082,144.9985486
27450,Yarra Ranges,S,2468.205,-37.71427637,145.6970366
27630,Yarriambiack,S,7325.797,-35.99006416,142.4190092
29399,Unincorporated Vic,,283.0142,-37.89911012,145.8927899
29499,No usual address (Vic.),,0,0,0
29799,Migratory - Offshore - Shipping (Vic.),,0,0,0
30250,Aurukun,S,7423.989,-13.60937695,141.8284466
30300,Balonne,S,31103.7071,-28.31589449,148.1161709
30370,Banana,S,28550.1626,-24.93516691,149.9387035
30410,Barcaldine,R,53382.6558,-23.11368703,145.6934209
30450,Barcoo,S,61830.0907,-25.13106967,142.2674619
30760,Blackall-Tambo,R,30537.2479,-24.78563034,145.7912559
30900,Boulia,S,60905.7352,-22.48046453,139.2464543
31000,Brisbane,C,1342.7188,-27.43784099,153.0390033
31750,Bulloo,S,73723.751,-28.02130615,142.5948361
31820,Bundaberg,R,6431.003,-24.96781843,152.0357622
31900,Burdekin,S,5043.9317,-19.82358277,147.2431054
31950,Burke,S,39684.0526,-18.03133152,138.9476841
32080,Cairns,R,1689.3129,-17.16016024,145.8190011
32250,Carpentaria,S,64121.0124,-17.44439712,141.3647459
32260,Cassowary Coast,R,4687.824,-17.95955139,145.9259724
32270,Central Highlands (Qld),R,59834.8359,-24.03145696,148.415812
32310,Charters Towers,R,68382.1643,-20.14886267,145.7882029
32330,Cherbourg,S,31.6002,-26.28880854,151.935993
32450,Cloncurry,S,47971.2596,-20.81770446,140.2647626
32500,Cook,S,105718.7588,-14.23595553,143.2596661
32600,Croydon,S,29497.9024,-18.55409959,142.2168011
32750,Diamantina,S,94730.4545,-24.63027467,139.7318197
32770,Doomadgee,S,1827.6518,-17.59652869,138.7809532
32810,Douglas,S,2427.8626,-16.22204082,145.2866968
33100,Etheridge,S,39199.2956,-18.50462098,143.6604051
33200,Flinders (Qld),S,41199.9374,-20.97388024,144.3217274
33220,Fraser Coast,R,7104.5987,-25.5279018,152.6767315
33360,Gladstone,R,10484.2862,-24.1763232,151.3070308
33430,Gold Coast,C,1333.7031,-27.98055785,153.318477
33610,Goondiwindi,R,19258.1008,-28.37358977,150.3398927
33620,Gympie,R,6883.9713,-26.14703772,152.4636346
33800,Hinchinbrook,S,2807.1889,-18.66189497,146.0476088
33830,Hope Vale,S,1111.7099,-15.16775039,145.1915664
33960,Ipswich,C,1093.857,-27.66561548,152.6674626
33980,Isaac,R,58707.9174,-22.23810156,147.8918517
34420,Kowanyama,S,2555.3325,-15.31952785,141.8105636
34530,Livingstone,S,11757.8683,-22.79598426,150.1934744
34570,Lockhart River,S,3575.4992,-13.00541689,143.2402607
34580,Lockyer Valley,R,2269.0053,-27.64272986,152.2405522
34590,Logan,C,958.1322,-27.76239609,153.040207
34710,Longreach,R,40572.2443,-23.71813391,143.9593191
34770,Mackay,R,7613.2964,-21.13909186,148.804243
34800,McKinlay,S,40736.7989,-20.53399759,141.5869643
34830,Mapoon,S,537.1003,-12.14176175,141.9198042
34860,Maranoa,R,58719.3446,-26.54428382,148.2876922
34880,Mareeba,S,53491.05,-16.98473715,143.9551715
35010,Moreton Bay,R,2041.4746,-27.11799306,152.8831201
35250,Mornington,S,1247.6932,-16.63183326,139.401312
35300,Mount Isa,C,43713.0221,-19.95391499,138.7822624
35600,Murweh,S,40699.7585,-26.18967957,146.4894762
35670,Napranum,S,2004.3545,-12.51576777,142.1124382
35740,Noosa,S,869.8657,-26.32485421,152.945576
35760,North Burnett,R,19669.8489,-25.35528358,151.2041668
35780,Northern Peninsula Area,R,1052.0676,-11.00491619,142.3128902
35790,Palm Island,S,71.9928,-18.73136093,146.6002524
35800,Paroo,S,47612.8774,-28.0729194,145.7712821
36070,Pormpuraaw,S,4395.3657,-14.71940668,141.8073975
36150,Quilpie,S,67414.6563,-26.34882992,143.8934384
36250,Redland,C,537.167,-27.56859849,153.3608429
36300,Richmond,S,26580.7478,-20.54065546,142.9010569
36370,Rockhampton,R,6570.2667,-23.44114359,150.2184207
36510,Scenic Rim,R,4242.7432,-28.0623254,152.796189
36580,Somerset,R,5373.4337,-27.0089366,152.4252133
36630,South Burnett,R,8381.558,-26.40522084,151.6469256
36660,Southern Downs,R,7107.816,-28.40552515,151.8858125
36720,Sunshine Coast,R,2253.8526,-26.69618141,152.8983519
36820,Tablelands,R,11292.8698,-17.93079274,145.3305341
36910,Toowoomba,R,12957.2108,-27.58199231,151.5338929
36950,Torres,S,883.731,-10.73116317,142.4122781
36960,Torres Strait Island,R,490.031,-9.859117374,142.3655714
37010,Townsville,C,3730.82,-19.39083311,146.7116699
37300,Weipa,T,10.8218,-12.64044586,141.8789038
37310,Western Downs,R,37922.5008,-26.84177589,150.3476557
37340,Whitsunday,R,23818.8922,-20.70094104,147.7246964
37400,Winton,S,53813.4826,-22.53914476,142.4244978
37550,Woorabinda,S,390.5578,-23.94395142,149.5255455
37570,Wujal Wujal,S,11.842,-15.96830325,145.3131922
37600,Yarrabah,S,158.8381,-16.99453947,145.8971595
39499,No usual address (Qld),,0,0,0
39799,Migratory - Offshore - Shipping (Qld),,0,0,0
40070,Adelaide,C,15.5733,-34.92198297,138.5989126
40120,Adelaide Hills,DC,794.4957,-34.89282375,138.8362292
40150,Adelaide Plains,DC,932.4913,-34.48062208,138.454677
40220,Alexandrina,DC,1826.8066,-35.35191397,138.878352
40250,Anangu Pitjantjatjara,AC,102353.0512,-27.07764262,131.205581
40310,Barossa,DC,893.5424,-34.62106437,139.0016824
40430,Barunga West,DC,1590.3887,-33.79896708,137.9563366
40520,Berri and Barmera,DC,476.1962,-34.26585441,140.4889057
40700,Burnside,C,27.5183,-34.93997636,138.6598672
40910,Campbelltown (SA),C,24.3486,-34.88372581,138.6822336
41010,Ceduna,DC,5420.3436,-32.1021117,133.8724203
41060,Charles Sturt,C,54.7876,-34.8903651,138.5236111
41140,Clare and Gilbert Valleys,DC,1892.4466,-34.00397013,138.7359695
41190,Cleve,DC,5018.8484,-33.65030968,136.2847504
41330,Coober Pedy,DC,77.6795,-29.01585855,134.7523529
41560,Copper Coast,DC,772.9149,-33.98339271,137.7289584
41750,Elliston,DC,6741.9317,-33.56155315,135.3446074
41830,Flinders Ranges,DC,4070.4827,-32.07562393,138.3011907
41960,Franklin Harbour,DC,2755.564,-33.53430316,136.9644078
42030,Gawler,T,41.1379,-34.62212681,138.729882
42110,Goyder,DC,6715.1418,-33.64597118,139.0740752
42250,Grant,DC,1898.0143,-37.84610371,140.7247687
42600,Holdfast Bay,C,13.752,-35.00114401,138.52131
42750,Kangaroo Island,DC,4400.8558,-35.82781953,137.2397688
43080,Karoonda East Murray,DC,4415.7959,-34.95050499,140.0200949
43220,Kimba,DC,5697.1076,-33.00269332,136.1437993
43360,Kingston (SA),DC,3339.7952,-36.64351575,140.0255096
43650,Light (RegC),,1276.8453,-34.41110559,138.8464943
43710,Lower Eyre Peninsula,DC,4721.2875,-34.41245493,135.597083
43790,Loxton Waikerie,DC,7763.9231,-34.50822872,140.3516249
44000,Maralinga Tjarutja,AC,102703.899,-29.32921714,130.9386591
44060,Marion,C,55.6407,-35.03248303,138.5396963
44210,Mid Murray,DC,6271.6254,-34.4502208,139.461387
44340,Mitcham,C,75.5468,-35.00387567,138.6217501
44550,Mount Barker,DC,594.6405,-35.08580933,138.8750044
44620,Mount Gambier,C,33.8938,-37.82534522,140.7816824
44830,Mount Remarkable,DC,3422.7733,-32.75828444,138.2051128
45040,Murray Bridge,RC,1831.7597,-35.15931858,139.301783
45090,Naracoorte and Lucindale,DC,4520.127,-36.97725532,140.5473539
45120,Northern Areas,DC,2986.1818,-33.28640907,138.5114197
45290,Norwood Payneham St Peters,C,15.1036,-34.90757386,138.6364496
45340,Onkaparinga,C,518.1251,-35.17868805,138.5688526
45400,Orroroo/Carrieton,DC,3321.8238,-32.52076899,138.6393538
45540,Peterborough,DC,3020.142,-32.86412252,139.0596411
45680,Playford,C,345.203,-34.68888928,138.6629666
45890,Port Adelaide Enfield,C,91.7586,-34.84071201,138.5615077
46090,Port Augusta,C,1195.5836,-32.59564699,137.7551665
46300,Port Lincoln,C,30.3681,-34.72922121,135.8511284
46450,Port Pirie City and Dists,M,1760.7097,-33.37684232,138.1059323
46510,Prospect,C,7.7915,-34.88399707,138.5979358
46670,Renmark Paringa,DC,915.8655,-34.18235452,140.8140211
46860,Robe,DC,1091.7162,-37.1876842,139.9794424
46970,Roxby Downs,M,110.4762,-30.55438582,136.8811786
47140,Salisbury,C,159.8432,-34.77265898,138.6112993
47290,Southern Mallee,DC,5702.2095,-35.39392082,140.5743521
47490,Streaky Bay,DC,6222.8591,-32.70891704,134.5640285
47630,Tatiara,DC,6527.2084,-36.22791994,140.5844406
47700,Tea Tree Gully,C,95.2108,-34.8051616,138.7180409
47800,The Coorong,DC,8833.434,-35.71380822,139.7613115
47910,Tumby Bay,DC,2669.0747,-34.17933413,136.0196972
47980,Unley,C,14.2703,-34.9547972,138.6040323
48050,Victor Harbor,C,384.6255,-35.51278989,138.5461615
48130,Wakefield,DC,3468.4881,-33.99144534,138.356505
48260,Walkerville,M,3.53,-34.89278583,138.6171095
48340,Wattle Range,DC,3926.3233,-37.47040532,140.5188768
48410,West Torrens,C,37.04,-34.94140638,138.5438613
48540,Whyalla,C,1071.3398,-33.03731913,137.4943369
48640,Wudinna,DC,5075.2783,-33.02866409,135.3146384
48750,Yankalilla,DC,751.2577,-35.51859227,138.3370932
48830,Yorke Peninsula,DC,5899.6079,-34.68371184,137.5599406
49399,Unincorporated SA,,622489.4848,-29.590227,136.7496136
49499,No usual address (SA),,0,0,0
49799,Migratory - Offshore - Shipping (SA),,0,0,0
50080,Albany,C,4310.8905,-34.73895437,118.1830048
50210,Armadale,C,559.5261,-32.16753197,116.1369781
50250,Ashburton,S,100818.2074,-22.49363911,116.7262343
50280,Augusta-Margaret River,S,2122.3749,-34.03087723,115.2277905
50350,Bassendean,T,10.3449,-31.90384753,115.9452211
50420,Bayswater,C,34.6168,-31.90378892,115.907817
50490,Belmont,C,39.8246,-31.95623366,115.9483178
50560,Beverley,S,2370.5195,-32.17466449,116.7965793
50630,Boddington,S,1904.4791,-32.8162963,116.3998901
50770,Boyup Brook,S,2826.4586,-33.89176767,116.5240302
50840,Bridgetown-Greenbushes,S,1337.361,-34.00378095,116.1909901
50910,Brookton,S,1601.1532,-32.36199532,117.0030892
50980,Broome,S,54401.8236,-18.67021853,122.4636796
51080,Broomehill-Tambellup,S,2609.6585,-34.00250967,117.6613186
51120,Bruce Rock,S,2724.6944,-31.95258954,118.02863
51190,Bunbury,C,65.4163,-33.35164656,115.664394
51260,Busselton,C,1454.0505,-33.71844401,115.3488598
51310,Cambridge,T,21.9554,-31.93627865,115.7863994
51330,Canning,C,64.8789,-32.03689462,115.916351
51400,Capel,S,557.8983,-33.53235059,115.6357198
51470,Carnamah,S,2870.9247,-29.77322287,115.5778324
51540,Carnarvon,S,46574.6082,-24.34996371,114.3910287
51610,Chapman Valley,S,3981.3333,-28.32237686,115.0591262
51680,Chittering,S,1219.9032,-31.37439472,116.0783362
51750,Claremont,T,4.9556,-31.9801491,115.779976
51820,Cockburn,C,167.8989,-32.11430928,115.7929531
51890,Collie,S,1709.8149,-33.28355478,116.2115661
51960,Coolgardie,S,30297.6977,-31.18678543,120.964463
52030,Coorow,S,4189.8791,-30.02161616,115.7592142
52100,Corrigin,S,2681.2709,-32.35836673,117.7990292
52170,Cottesloe,T,3.8564,-31.99400324,115.7584961
52240,Cranbrook,S,3276.0491,-34.31481842,117.285873
52310,Cuballing,S,1195.337,-32.73540941,117.1591741
52380,Cue,S,13582.1956,-27.31082065,117.9400408
52450,Cunderdin,S,1862.4458,-31.59958143,117.1557198
52520,Dalwallinu,S,7224.3566,-30.12524679,116.9447543
52590,Dandaragan,S,6711.5721,-30.53961369,115.50607
52660,Dardanup,S,525.8017,-33.41542499,115.8519147
52730,Denmark,S,1859.8488,-34.89048459,117.1188282
52800,Derby-West Kimberley,S,119730.9697,-17.79105655,124.977508
52870,Donnybrook-Balingup,S,1559.8561,-33.66955307,115.973538
52940,Dowerin,S,1863.0851,-31.10765635,117.1112682
53010,Dumbleyung,S,2539.2249,-33.22450145,117.9645274
53080,Dundas,S,92885.0302,-32.01133557,124.417878
53150,East Fremantle,T,3.1384,-32.03794023,115.7681674
53220,East Pilbara,S,372307.466,-21.76848399,123.5966594
53290,Esperance,S,44797.5456,-33.22197255,122.2502815
53360,Exmouth,S,6488.0705,-22.52170213,114.1670118
53430,Fremantle,C,19.0103,-32.05764722,115.7665602
53570,Gingin,S,3208.3585,-31.19158,115.6991741
53640,Gnowangerup,S,4265.0424,-34.06213521,118.288742
53710,Goomalling,S,1835.4294,-31.24284099,116.7847478
53780,Gosnells,C,127.2975,-32.06623178,115.9921368
53800,Greater Geraldton,C,9909.0003,-28.56154787,115.4971485
53920,Halls Creek,S,133061.0128,-19.25821692,127.6169531
53990,Harvey,S,1727.6068,-33.10110481,115.9124956
54060,Irwin,S,2369.3298,-29.32604198,115.0918113
54130,Jerramungup,S,6508.5904,-34.07044001,119.1012654
54170,Joondalup,C,98.9285,-31.78349268,115.7667032
54200,Kalamunda,C,324.2957,-32.01224507,116.1227635
54280,Kalgoorlie/Boulder,C,95498.052,-30.74941314,125.0512267
54310,Karratha,C,15237.3974,-21.04928037,117.0360929
54340,Katanning,S,1518.1854,-33.64830044,117.6842163
54410,Kellerberrin,S,1915.433,-31.58234584,117.8145258
54480,Kent,S,5624.5818,-33.55082935,118.5722355
54550,Kojonup,S,2930.9926,-33.90763659,117.0480118
54620,Kondinin,S,7440.8016,-32.42731714,119.1847992
54690,Koorda,S,2832.3131,-30.59049156,117.4254614
54760,Kulin,S,4718.9219,-32.71752012,118.5761062
54830,Kwinana,C,120.0121,-32.2276902,115.828662
54900,Lake Grace,S,11886.3199,-33.05989716,119.2875284
54970,Laverton,S,179984.601,-27.89112094,125.4014777
55040,Leonora,S,31915.0562,-28.21232792,121.1453661
55110,Mandurah,C,174.8967,-32.63379595,115.682924
55180,Manjimup,S,7029.6077,-34.55714017,116.3256781
55250,Meekatharra,S,100188.5477,-25.14011036,118.8640127
55320,Melville,C,52.8506,-32.04744661,115.8293882
55390,Menzies,S,124110.9368,-29.57510539,123.9709154
55460,Merredin,S,3293.7824,-31.51532775,118.3593488
55530,Mingenew,S,1934.8857,-29.15819915,115.4842493
55600,Moora,S,3763.0254,-30.49805819,116.1854438
55670,Morawa,S,3510.5928,-29.06691948,116.0170873
55740,Mosman Park,T,4.3472,-32.01480439,115.7655457
55810,Mount Magnet,S,13858.1182,-28.2380656,117.9764084
55880,Mount Marshall,S,10184.5937,-30.18376616,117.9621777
55950,Mukinbudin,S,3426.9441,-30.62995354,118.3111358
56090,Mundaring,S,643.2013,-31.8999368,116.2516316
56160,Murchison,S,45046.0922,-26.75184647,116.299754
56230,Murray,S,1703.4688,-32.62366266,115.9894316
56300,Nannup,S,3053.9361,-34.12843586,115.6638961
56370,Narembeen,S,3809.0285,-32.04711572,118.6538482
56460,Narrogin,S,1631.3024,-32.99537812,117.2622494
56580,Nedlands,C,19.645,-31.97244956,115.7895776
56620,Ngaanyatjarraku,S,159821.7026,-25.09484257,126.8353632
56730,Northam,S,1431.2215,-31.68594733,116.6359961
56790,Northampton,S,12543.7142,-27.75307949,114.6459137
56860,Nungarin,S,1166.0245,-31.14939384,118.2080881
56930,Peppermint Grove,S,1.0677,-31.99933321,115.7671427
57000,Perenjori,S,8301.3551,-29.4439406,116.6114162
57080,Perth,C,13.7193,-31.9601723,115.8465447
57140,Pingelly,S,1294.5721,-32.51995909,117.2220465
57210,Plantagenet,S,4876.6821,-34.597219,117.561969
57280,Port Hedland,T,18417.0777,-20.92912306,118.6732035
57350,Quairading,S,2016.9269,-32.0048157,117.4234397
57420,Ravensthorpe,S,9841.7503,-33.61619563,120.1385985
57490,Rockingham,C,257.497,-32.34418253,115.7889968
57630,Sandstone,S,32605.2911,-28.33591443,119.1731127
57700,Serpentine-Jarrahdale,S,901.2056,-32.3442558,116.034331
57770,Shark Bay,S,24201.2466,-26.53672699,114.5251436
57840,South Perth,C,19.8116,-31.99785705,115.8700148
57910,Stirling,C,104.727,-31.88569324,115.8196269
57980,Subiaco,C,5.6182,-31.95202292,115.8187189
58050,Swan,C,1042.9933,-31.74127732,116.0674126
58190,Tammin,S,1101.692,-31.60667627,117.4949909
58260,Three Springs,S,2656.6928,-29.52576731,115.5773157
58330,Toodyay,S,1691.6486,-31.47109271,116.3806547
58400,Trayning,S,1651.2043,-31.14401176,117.8068733
58470,Upper Gascoyne,S,57809.8737,-24.72658929,116.3551111
58510,Victoria Park,T,17.9397,-31.97971369,115.90147
58540,Victoria Plains,S,2551.0132,-31.01433503,116.3195939
58570,Vincent,C,11.3769,-31.9312904,115.8525446
58610,Wagin,S,1946.1763,-33.27669357,117.3699291
58680,Wandering,S,1903.8645,-32.54718278,116.5812551
58760,Wanneroo,C,683.2603,-31.61176485,115.7629492
58820,Waroona,S,832.2286,-32.85795233,115.9200953
58890,West Arthur,S,2831.8272,-33.45713017,116.7393672
59030,Westonia,S,3319.4497,-30.96757687,118.656247
59100,Wickepin,S,2040.8985,-32.80696476,117.6717617
59170,Williams,S,2304.7119,-33.07142707,116.7280892
59250,Wiluna,S,181297.3382,-25.3120282,122.2450795
59310,Wongan-Ballidu,S,3365.0675,-30.71713078,116.8426142
59320,Woodanilling,S,1128.8348,-33.53366586,117.3380623
59330,Wyalkatchem,S,1594.4885,-31.18668907,117.435277
59340,Wyndham-East Kimberley,S,112065.9843,-15.55897819,127.051677
59350,Yalgoo,S,27949.4641,-28.56517308,117.0502731
59360,Yilgarn,S,30428.765,-30.95734797,119.341985
59370,York,S,2131.5916,-31.92637971,116.7354279
59499,No usual address (WA),,0,0,0
59799,Migratory - Offshore - Shipping (WA),,0,0,0
60210,Break ODay,M,3523.8859,-41.42530796,148.0498946
60410,Brighton,M,171.1508,-42.71934077,147.2609535
60610,Burnie,C,610.9529,-41.21605783,145.8061937
60810,Central Coast (Tas.),M,933.0892,-41.28124768,146.0400233
61010,Central Highlands (Tas.),M,7982.4155,-42.21234562,146.6460583
61210,Circular Head,M,4898.011,-41.07894879,145.0146543
61410,Clarence,C,377.9552,-42.83702628,147.4341341
61510,Derwent Valley,M,4108.1112,-42.81296969,146.4213567
61610,Devonport,C,111.259,-41.20869693,146.3118994
61810,Dorset,M,3230.5456,-41.07212137,147.7085145
62010,Flinders (Tas.),M,1996.6244,-40.11936708,148.0978489
62210,George Town,M,653.4377,-41.10217987,147.0260166
62410,Glamorgan/Spring Bay,M,2591.5618,-42.26918006,147.9653473
62610,Glenorchy,C,121.1483,-42.83933315,147.2197605
62810,Hobart,C,77.9097,-42.89783875,147.2876066
63010,Huon Valley,M,5507.3541,-43.25142971,146.5971548
63210,Kentish,M,1156.1887,-41.45396931,146.1835145
63410,King Island,M,1095.7407,-39.86381398,143.9854801
63610,Kingborough,M,720.1029,-43.18919884,147.2623347
63810,Latrobe (Tas.),M,600.4617,-41.24398316,146.5600215
64010,Launceston,C,1413.6306,-41.36063424,147.3058147
64210,Meander Valley,M,3330.8145,-41.62665438,146.4847816
64610,Northern Midlands,M,5135.2503,-41.84018693,147.4601682
64810,Sorell,M,583.7776,-42.77868023,147.6961444
65010,Southern Midlands,M,2615.4934,-42.43456223,147.4005508
65210,Tasman,M,660.3947,-43.05468704,147.8346525
65410,Waratah/Wynyard,M,3535.9075,-41.38324155,145.4953807
65610,West Coast,M,9583.5388,-42.29818814,145.637319
65810,West Tamar,M,691.147,-41.28164197,146.8643962
69499,No usual address (Tas.),,0,0,0
69799,Migratory - Offshore - Shipping (Tas.),,0,0,0
70200,Alice Springs,T,327.7133,-23.73507313,133.8547686
70420,Barkly,R,322713.2188,-19.44409604,135.0847462
70540,Belyuen,S,41.4054,-12.53818463,130.6831805
70620,Central Desert,R,281312.0262,-21.48983659,132.4152999
70700,Coomalie,S,2056.0547,-13.12575218,131.0828541
71000,Darwin,C,111.318,-12.39845244,130.8869863
71300,East Arnhem,R,33309.9334,-12.93324373,135.7455308
72200,Katherine,T,7416.6444,-14.69017269,132.195082
72300,Litchfield,M,2903.1459,-12.53745077,131.1218006
72330,MacDonnell,R,268329.3474,-24.63730163,133.1615086
72800,Palmerston,C,52.6559,-12.50251941,130.9791768
73600,Roper Gulf,R,185210.2475,-15.4348397,134.651131
74050,Tiwi Islands,R,7483.1661,-11.55984546,130.8162961
74550,Victoria Daly,R,153287.0839,-16.24958627,130.6586269
74560,Wagait,S,5.6378,-12.44123546,130.7497047
74660,West Arnhem,R,49675.0343,-12.50805817,133.2585135
74680,West Daly,R,14069.6979,-14.22300732,130.0603394
79399,Unincorporated NT,,19789.9972,-13.11245501,131.1872178
79499,No usual address (NT),,0,0,0
79799,Migratory - Offshore - Shipping (NT),,0,0,0
89399,Unincorporated ACT,,2358.172,-35.48876608,149.0025231
89499,No usual address (ACT),,0,0,0
89799,Migratory - Offshore - Shipping (ACT),,0,0,0
99399,Unincorp. Other Territories,,256.3162,-20.79726518,128.3685429
99499,No usual address (OT),,0,0,0
99799,Migratory - Offshore - Shipping (OT),,0,0,0
>>>>>>> eccf6a3e1b82eda16d217fa14efdec164dbb1ffe
